{
  "html_attributions": [],
  "results": [
    {
      "formatted_address": "Yaza Thingaha Rd, Myanmar (Burma)",
      "geometry": {
        "location": {
          "lat": 19.7140913,
          "lng": 96.11095189999999
        },
        "viewport": {
          "northeast": {
            "lat": 19.71544112989272,
            "lng": 96.1123017298927
          },
          "southwest": {
            "lat": 19.71274147010728,
            "lng": 96.10960207010727
          }
        }
      },
      "icon": "https://maps.gstatic.com/mapfiles/place_api/icons/movies-71.png",
      "id": "ba1035f9706f938375abf2eddbc5becf74a4a9ea",
      "name": "Junction Naypyitaw Cineplex",
      "place_id": "ChIJOTiAsFK8yDARAhkXfyHhu_0",
      "plus_code": {
        "compound_code": "P476+J9 Hotel Zone, Myanmar (Burma)",
        "global_code": "7MFRP476+J9"
      },
      "rating": 3.9,
      "reference": "CmRbAAAAnNd0UlgxKEK_hFJdcjjo39Jp25GFJYLfvVbMxLzPr8VjNPWZmumNhzJ9TSBuv74BOihruulSXzqawEGzs2j4aOK1eOT0V-pnS9mV8KKYHGAJi1z8IrZ1IX170f76QMbSEhCtFmdF0wd3umkyN0Xpd3s2GhT7AlWVEurKIMFn1AFwFvE7B2TZJg",
      "types": [
        "movie_theater",
        "point_of_interest",
        "establishment"
      ]
    },
    {
      "formatted_address": "Yaza Thingaha Rd, Naypyitaw, Myanmar (Burma)",
      "geometry": {
        "location": {
          "lat": 19.7145319,
          "lng": 96.11095019999999
        },
        "viewport": {
          "northeast": {
            "lat": 19.71588172989272,
            "lng": 96.11230002989271
          },
          "southwest": {
            "lat": 19.71318207010728,
            "lng": 96.10960037010726
          }
        }
      },
      "icon": "https://maps.gstatic.com/mapfiles/place_api/icons/shopping-71.png",
      "id": "41a4c35eb857c4cd9e8810c40d4516d38ef7b113",
      "name": "Junction Centre",
      "opening_hours": {
        "open_now": true
      },
      "photos": [
        {
          "height": 3096,
          "html_attributions": [
            "<a href=\"https://maps.google.com/maps/contrib/105046638507835226720/photos\">Raymond Htoo</a>"
          ],
          "photo_reference": "CmRaAAAA_Iaw62Ivg8R-SvL5TivXhoNdY57WYWML5T8Nn_f73bpF4TLDzDxzHYRanfM0S8iFGkbAj_Ss5OIpp4G5AGiq1b338JDKHI2tMy9cQTteHu6CtGnGQ9z_5NX6rdbSnkkHEhD7V9B7L9NyPWJrGv5RkQEYGhRwWKZgEsvPytn3x_1Vpvb8Z84HEw",
          "width": 5504
        }
      ],
      "place_id": "ChIJcwqts1K8yDAR1GPYF7-m0CQ",
      "plus_code": {
        "compound_code": "P476+R9 Hotel Zone, Myanmar (Burma)",
        "global_code": "7MFRP476+R9"
      },
      "rating": 3.9,
      "reference": "CmRbAAAAI0V4tqggQDPjsGMK_q-cjTBIDwIVauN0bkZveVgys33VBbc2t91_qx-U9s8zxxpx_SKCpMwsQ-3qdrpUkA4BFLhucAFxgF3Y5NONW6Pwdv2UMenJyKFHkzDTeDxqspz5EhCcv60lfVGBfzbDlop632syGhQGtwtM_Mc958cT5MVQ_sX-ok911g",
      "types": [
        "shopping_mall",
        "point_of_interest",
        "establishment"
      ]
    }
  ],
  "status": "OK"
}
